{
    "data": [
        {"name": "청운효자동 자치회관", "address": "서울특별시 종로구 자하문로 92", "si": "서울특별시", "gu": "종로구", "dong": "청운효자동", "loc": {"lat": 37.5840835, "lng": 126.9706357}}, {"name": "사직동 자치회관", "address": "서울특별시 종로구 사직로9길 1", "si": "서울특별시", "gu": "종로구", "dong": "사직동", "loc": {"lat": 37.576191449999996, "lng": 126.96882915}}, {"name": "삼청동 자치회관", "address": "서울특별시 종로구 삼청로 107", "si": "서울특별시", "gu": "종로구", "dong": "삼청동", "loc": {"lat": 37.5849793, "lng": 126.98178162729107}}, {"name": "부암동 자치회관", "address": "서울특별시 종로구 창의문로 145", "si": "서울특별시", "gu": "종로구", "dong": "부암동", "loc": {"lat": 37.5902928, "lng": 126.9706226}}, {"name": "평창동 자치회관", "address": "서울특별시 종로구 평창문화로 65", "si": "서울특별시", "gu": "종로구", "dong": "평창동", "loc": {"lat": 37.6063535, "lng": 126.96830056258561}}, {"name": "무악동 자치회관", "address": "서울특별시 종로구 통일로14길 36", "si": "서울특별시", "gu": "종로구", "dong": "무악동", "loc": {"lat": 37.57596635, "lng": 126.95817958692916}}, {"name": "교남동 자치회관", "address": "서울특별시 종로구 송월길 154", "si": "서울특별시", "gu": "종로구", "dong": "교남동", "loc": {"lat": 37.5718765, "lng": 126.96194049986487}}, {"name": "가회동 자치회관", "address": "서울특별시 종로구 율곡로 89", "si": "서울특별시", "gu": "종로구", "dong": "가회동", "loc": {"lat": 37.5760971, "lng": 127.0001363}}, {"name": "종로1.2.3.4가동 자치회관", "address": "서울특별시 종로구 종로1.2.3.4가동 삼일대로30길 47", "si": "서울특별시", "gu": "종로구", "dong": "종로1.2.3.4가동", "loc": {"lat": 37.5744505, "lng": 126.9903077}}, {"name": "종로5.6가동 자치회관", "address": "서울특별시 종로구 종로35가길 19", "si": "서울특별시", "gu": "종로구", "dong": "종로5.6가동", "loc": {"lat": 37.5720378, "lng": 127.0050662}}, {"name": "이화동 자치회관", "address": "서울특별시 종로구 이화장길 33", "si": "서울특별시", "gu": "종로구", "dong": "이화동", "loc": {"lat": 37.57697485, "lng": 127.00431642115672}}, {"name": "혜화동 자치회관", "address": "서울특별시 종로구 혜화로 12", "si": "서울특별시", "gu": "종로구", "dong": "혜화동", "loc": {"lat": 37.586829, "lng": 127.0006022}}, {"name": "창신제1동 자치회관", "address": "서울특별시 종로구 지봉로 8-6", "si": "서울특별시", "gu": "종로구", "dong": "창신제1동", "loc": {"lat": 37.576607, "lng": 127.015508}}, {"name": "창신제2동 자치회관", "address": "서울특별시 종로구 창신길 62", "si": "서울특별시", "gu": "종로구", "dong": "창신제2동", "loc": {"lat": 37.5756133, "lng": 127.0109366}}, {"name": "창신제3동 자치회관", "address": "서울특별시 종로구 지봉로 87", "si": "서울특별시", "gu": "종로구", "dong": "창신제3동", "loc": {"lat": 37.576607, "lng": 127.015508}}, {"name": "숭인제1동 자치회관", "address": "서울특별시 종로구 지봉로 86", "si": "서울특별시", "gu": "종로구", "dong": "숭인제1동", "loc": {"lat": 37.576607, "lng": 127.015508}}, {"name": "숭인제2동 자치회관", "address": "서울특별시 종로구 종로65길 10", "si": "서울특별시", "gu": "종로구", "dong": "숭인제2동", "loc": {"lat": 37.5760626, "lng": 127.019901}}, {"name": "소공동 자치회관", "address": "서울특별시 중구 남대문로1길 31-5", "si": "서울특별시", "gu": "중구", "dong": "소공동", "loc": {"lat": 37.5629075, "lng": 126.977303}}, {"name": "회현동 자치회관", "address": "서울특별시 중구 퇴계로8길 46", "si": "서울특별시", "gu": "중구", "dong": "회현동", "loc": {"lat": 37.557318, "lng": 126.97929}}, {"name": "명동 자치회관", "address": "서울특별시 중구 퇴계로20길 3", "si": "서울특별시", "gu": "중구", "dong": "명동", "loc": {"lat": 37.5600403, "lng": 126.98584414969244}}, {"name": "필동 자치회관", "address": "서울특별시 중구 퇴계로36길 42", "si": "서울특별시", "gu": "중구", "dong": "필동", "loc": {"lat": 37.5604895, "lng": 126.9947912}}, {"name": "장충동 자치회관", "address": "서울특별시 중구 장충단로8길 22", "si": "서울특별시", "gu": "중구", "dong": "장충동", "loc": {"lat": 37.561904, "lng": 127.007731}}, {"name": "광희동 자치회관", "address": "서울특별시 중구 퇴계로 303-9", "si": "서울특별시", "gu": "중구", "dong": "광희동", "loc": {"lat": 37.5611056, "lng": 126.9867092}}, {"name": "을지로동 자치회관", "address": "서울특별시 중구 충무로9길 19", "si": "서울특별시", "gu": "중구", "dong": "을지로동", "loc": {"lat": 37.5672143, "lng": 126.9903072}}, {"name": "신당동 자치회관", "address": "서울특별시 중구 다산로33길 3", "si": "서울특별시", "gu": "중구", "dong": "신당동", "loc": {"lat": 37.5624685, "lng": 127.0139161}}, {"name": "다산동 자치회관", "address": "서울특별시 중구 동호로15길 50", "si": "서울특별시", "gu": "중구", "dong": "다산동", "loc": {"lat": 37.5543101, "lng": 127.0083037}}, {"name": "약수동 자치회관", "address": "서울특별시 중구 다산로 92", "si": "서울특별시", "gu": "중구", "dong": "약수동", "loc": {"lat": 37.552466, "lng": 127.0090055}}, {"name": "청구동 자치회관", "address": "서울특별시 중구 청구로3길 55", "si": "서울특별시", "gu": "중구", "dong": "청구동", "loc": {"lat": 37.5570674, "lng": 127.0147029}}, {"name": "신당5동 자치회관", "address": "서울특별시 중구 다산로44길 85", "si": "서울특별시", "gu": "중구", "dong": "신당5동", "loc": {"lat": 37.5650724, "lng": 127.0218508}}, {"name": "동화동 자치회관", "address": "서울특별시 중구 다산로36길 110", "si": "서울특별시", "gu": "중구", "dong": "동화동", "loc": {"lat": 37.5624598, "lng": 127.0164076}}, {"name": "황학동 자치회관", "address": "서울특별시 중구 난계로11길 52", "si": "서울특별시", "gu": "중구", "dong": "황학동", "loc": {"lat": 37.567445899999996, "lng": 127.02136931543671}}, {"name": "중림동 자치회관", "address": "서울특별시 중구 만리재로 175", "si": "서울특별시", "gu": "중구", "dong": "중림동", "loc": {"lat": 37.553490800000006, "lng": 126.9630962100162}}, {"name": "후암동 자치회관", "address": "서울특별시 용산구 후암로 32-6", "si": "서울특별시", "gu": "용산구", "dong": "후암동", "loc": {"lat": 37.5534973, "lng": 126.9747543}}, {"name": "용산2가동 자치회관", "address": "서울특별시 용산구 신흥로 90", "si": "서울특별시", "gu": "용산구", "dong": "용산2가동", "loc": {"lat": 37.546128, "lng": 126.9855719}}, {"name": "남영동 자치회관", "address": "서울특별시 용산구 두텁바위로 25", "si": "서울특별시", "gu": "용산구", "dong": "남영동", "loc": {"lat": 37.54574635, "lng": 126.97482852424046}}, {"name": "청파동 자치회관", "address": "서울특별시 용산구 청파로49길 6", "si": "서울특별시", "gu": "용산구", "dong": "청파동", "loc": {"lat": 37.5454383, "lng": 126.9697249}}, {"name": "원효로1동 자치회관", "address": "서울특별시 용산구 백범로 350", "si": "서울특별시", "gu": "용산구", "dong": "원효로1동", "loc": {"lat": 37.5372658, "lng": 126.9677293}}, {"name": "원효로2동 자치회관", "address": "서울특별시 용산구 효창원로8길 3", "si": "서울특별시", "gu": "용산구", "dong": "원효로2동", "loc": {"lat": 37.5338578, "lng": 126.9518669}}, {"name": "효창동 자치회관", "address": "서울특별시 용산구 효창원로 161", "si": "서울특별시", "gu": "용산구", "dong": "효창동", "loc": {"lat": 37.542463749999996, "lng": 126.96188849712505}}, {"name": "용문동 자치회관", "address": "서울특별시 용산구 새창로12길 13", "si": "서울특별시", "gu": "용산구", "dong": "용문동", "loc": {"lat": 37.5378177, "lng": 126.9562536}}, {"name": "한강로동 자치회관", "address": "서울특별시 용산구 한강대로38길 28", "si": "서울특별시", "gu": "용산구", "dong": "한강로동", "loc": {"lat": 37.5281196, "lng": 126.96920037042088}}, {"name": "이촌1동 자치회관", "address": "서울특별시 용산구 이촌로71길 24", "si": "서울특별시", "gu": "용산구", "dong": "이촌1동", "loc": {"lat": 37.5211598, "lng": 126.9728621}}, {"name": "이촌2동 자치회관", "address": "서울특별시 용산구 이촌로18길 20", "si": "서울특별시", "gu": "용산구", "dong": "이촌2동", "loc": {"lat": 37.526192, "lng": 126.9551755}}, {"name": "이태원1동 자치회관", "address": "서울특별시 용산구 보광로 104-6", "si": "서울특별시", "gu": "용산구", "dong": "이태원1동", "loc": {"lat": 37.5291863, "lng": 126.9980379}}, {"name": "이태원2동 자치회관", "address": "서울특별시 용산구 회나무로13길 58", "si": "서울특별시", "gu": "용산구", "dong": "이태원2동", "loc": {"lat": 37.5416891, "lng": 126.9906339}}, {"name": "한남동 자치회관", "address": "서울특별시 용산구 대사관로5길 1", "si": "서울특별시", "gu": "용산구", "dong": "한남동", "loc": {"lat": 37.53462385, "lng": 127.00051606674438}}, {"name": "서빙고동 자치회관", "address": "서울특별시 용산구 서빙고로 279", "si": "서울특별시", "gu": "용산구", "dong": "서빙고동", "loc": {"lat": 37.520219, "lng": 126.9905063}}, {"name": "보광동 자치회관", "address": "서울특별시 용산구 장문로 95", "si": "서울특별시", "gu": "용산구", "dong": "보광동", "loc": {"lat": 37.5275066, "lng": 126.9949768}}, {"name": "왕십리도선동 자치회관", "address": "서울특별시 성동구 마장로 141", "si": "서울특별시", "gu": "성동구", "dong": "왕십리도선동", "loc": {"lat": 37.5679442, "lng": 127.02558978213858}}, {"name": "왕십리제2동 자치회관", "address": "서울특별시 성동구 무학봉길 69", "si": "서울특별시", "gu": "성동구", "dong": "왕십리제2동", "loc": {"lat": 37.5596464, "lng": 127.0256798}}, {"name": "마장동 자치회관", "address": "서울특별시 성동구 마장로42길 11", "si": "서울특별시", "gu": "성동구", "dong": "마장동", "loc": {"lat": 37.56588, "lng": 127.04575}}, {"name": "사근동 자치회관", "address": "서울특별시 성동구 사근동길 37", "si": "서울특별시", "gu": "성동구", "dong": "사근동", "loc": {"lat": 37.5601136, "lng": 127.0413452}}, {"name": "행당제1동 자치회관", "address": "서울특별시 성동구 고산자로10길 18", "si": "서울특별시", "gu": "성동구", "dong": "행당제1동", "loc": {"lat": 37.558747, "lng": 127.0354994}}, {"name": "행당제2동 자치회관", "address": "서울특별시 성동구 행당로9길 9", "si": "서울특별시", "gu": "성동구", "dong": "행당제2동", "loc": {"lat": 37.558229, "lng": 127.0293506}}, {"name": "응봉동 자치회관", "address": "서울특별시 성동구 독서당로 424", "si": "서울특별시", "gu": "성동구", "dong": "응봉동", "loc": {"lat": 37.54662, "lng": 127.0189015}}, {"name": "금호1가동 자치회관", "address": "서울특별시 성동구 행당로 15", "si": "서울특별시", "gu": "성동구", "dong": "금호1가동", "loc": {"lat": 37.5552783, "lng": 127.0221256}}, {"name": "금호2,3가동 자치회관", "address": "서울특별시 성동구 무수막18길 1", "si": "서울특별시", "gu": "성동구", "dong": "금호2,3가동", "loc": {"lat": 37.552556, "lng": 127.0221257}}, {"name": "금호4가동 자치회관", "address": "서울특별시 성동구 독서당로46길 26", "si": "서울특별시", "gu": "성동구", "dong": "금호4가동", "loc": {"lat": 37.5467287, "lng": 127.0204442}}, {"name": "옥수동 자치회관", "address": "서울특별시 성동구 독서당로 203", "si": "서울특별시", "gu": "성동구", "dong": "옥수동", "loc": {"lat": 37.54662, "lng": 127.0189015}}, {"name": "성수1가제1동 자치회관", "address": "서울특별시 성동구 뚝섬로3길 18", "si": "서울특별시", "gu": "성동구", "dong": "성수1가제1동", "loc": {"lat": 37.542067, "lng": 127.0496432}}, {"name": "성수1가제2동 자치회관", "address": "서울특별시 성동구 왕십리로5길 3", "si": "서울특별시", "gu": "성동구", "dong": "성수1가제2동", "loc": {"lat": 37.5467095, "lng": 127.044186}}, {"name": "성수2가제1동 자치회관", "address": "서울특별시 성동구 뚝섬로 385-19", "si": "서울특별시", "gu": "성동구", "dong": "성수2가제1동", "loc": {"lat": 37.5427804, "lng": 127.021923}}, {"name": "성수2가제3동 자치회관", "address": "서울특별시 성동구 광나루로2길 35", "si": "서울특별시", "gu": "성동구", "dong": "성수2가제3동", "loc": {"lat": 37.5487209, "lng": 127.0544243}}, {"name": "송정동 자치회관", "address": "서울특별시 성동구 동일로43길 13", "si": "서울특별시", "gu": "성동구", "dong": "송정동", "loc": {"lat": 37.5549166, "lng": 127.069682}}, {"name": "용답동 자치회관", "address": "서울특별시 성동구 용답중앙23길 20", "si": "서울특별시", "gu": "성동구", "dong": "용답동", "loc": {"lat": 37.5633713, "lng": 127.0542241}}, {"name": "중곡1동 자치회관", "address": "서울특별시 광진구 긴고랑로12길 49", "si": "서울특별시", "gu": "광진구", "dong": "중곡1동", "loc": {"lat": 37.5614397, "lng": 127.0802968}}, {"name": "중곡2동 자치회관", "address": "서울특별시 광진구 능동로 346", "si": "서울특별시", "gu": "광진구", "dong": "중곡2동", "loc": {"lat": 37.5602711, "lng": 127.0815066}}, {"name": "중곡3동 자치회관", "address": "서울특별시 광진구 동일로76가길 28", "si": "서울특별시", "gu": "광진구", "dong": "중곡3동", "loc": {"lat": 37.5688317, "lng": 127.0801796}}, {"name": "중곡4동 자치회관", "address": "서울특별시 광진구 긴고랑로 131", "si": "서울특별시", "gu": "광진구", "dong": "중곡4동", "loc": {"lat": 37.559077, "lng": 127.0894815}}, {"name": "능동 자치회관", "address": "서울특별시 광진구 천호대로112길 55", "si": "서울특별시", "gu": "광진구", "dong": "능동", "loc": {"lat": 37.5542428, "lng": 127.0800908}}, {"name": "구의1동 자치회관", "address": "서울특별시 광진구 광나루로36길 56", "si": "서울특별시", "gu": "광진구", "dong": "구의1동", "loc": {"lat": 37.5435491, "lng": 127.0864008}}, {"name": "구의2동 자치회관", "address": "서울특별시 광진구 천호대로136길 55", "si": "서울특별시", "gu": "광진구", "dong": "구의2동", "loc": {"lat": 37.547771, "lng": 127.0902816}}, {"name": "구의3동 자치회관", "address": "서울특별시 광진구 강변역로 17", "si": "서울특별시", "gu": "광진구", "dong": "구의3동", "loc": {"lat": 37.5380399, "lng": 127.0920061}}, {"name": "광장동 자치회관", "address": "서울특별시 광진구 광장로 52", "si": "서울특별시", "gu": "광진구", "dong": "광장동", "loc": {"lat": 37.5473486, "lng": 127.1041974}}, {"name": "자양1동 자치회관", "address": "서울특별시 광진구 자양로13길 37", "si": "서울특별시", "gu": "광진구", "dong": "자양1동", "loc": {"lat": 37.5330502, "lng": 127.0794998}}, {"name": "자양2동 자치회관", "address": "서울특별시 광진구 자양로3가길 26", "si": "서울특별시", "gu": "광진구", "dong": "자양2동", "loc": {"lat": 37.5293201, "lng": 127.0844977}}, {"name": "자양3동 자치회관", "address": "서울특별시 광진구 뚝섬로 568", "si": "서울특별시", "gu": "광진구", "dong": "자양3동", "loc": {"lat": 37.5338424, "lng": 127.0728903}}, {"name": "자양4동 자치회관", "address": "서울특별시 광진구 뚝섬로26길 58", "si": "서울특별시", "gu": "광진구", "dong": "자양4동", "loc": {"lat": 37.5344883, "lng": 127.0661053}}, {"name": "화양동 자치회관", "address": "서울특별시 광진구 능동로17길 39", "si": "서울특별시", "gu": "광진구", "dong": "화양동", "loc": {"lat": 37.5467536, "lng": 127.0714156}}, {"name": "군자동 자치회관", "address": "서울특별시 광진구 군자로 151", "si": "서울특별시", "gu": "광진구", "dong": "군자동", "loc": {"lat": 37.5555362, "lng": 127.0771029}}, {"name": "용신동 자치회관", "address": "서울특별시 동대문구 천호대로27길 35", "si": "서울특별시", "gu": "동대문구", "dong": "용신동", "loc": {"lat": 37.5758133, "lng": 127.03728852649259}}, {"name": "제기동 자치회관", "address": "서울특별시 동대문구 약령시로 71", "si": "서울특별시", "gu": "동대문구", "dong": "제기동", "loc": {"lat": 37.583117, "lng": 127.0378458}}, {"name": "전농1동 자치회관", "address": "서울특별시 동대문구 서울시립대로9길 21", "si": "서울특별시", "gu": "동대문구", "dong": "전농1동", "loc": {"lat": 37.577984, "lng": 127.047656}}, {"name": "전농2동 자치회관", "address": "서울특별시 동대문구 사가정로 137", "si": "서울특별시", "gu": "동대문구", "dong": "전농2동", "loc": {"lat": 37.578179, "lng": 127.0599213}}, {"name": "답십리1동 자치회관", "address": "서울특별시 동대문구 사가정로 30", "si": "서울특별시", "gu": "동대문구", "dong": "답십리1동", "loc": {"lat": 37.5788546, "lng": 127.0719789}}, {"name": "답십리2동 자치회관", "address": "서울특별시 동대문구 한천로11길 18", "si": "서울특별시", "gu": "동대문구", "dong": "답십리2동", "loc": {"lat": 37.5674043, "lng": 127.0613008}}, {"name": "장안1동 자치회관", "address": "서울특별시 동대문구 한천로18길 52", "si": "서울특별시", "gu": "동대문구", "dong": "장안1동", "loc": {"lat": 37.567825, "lng": 127.066442}}, {"name": "장안2동 자치회관", "address": "서울특별시 동대문구 사가정로 230-1", "si": "서울특별시", "gu": "동대문구", "dong": "장안2동", "loc": {"lat": 37.5784903, "lng": 127.0705968}}, {"name": "청량리동 자치회관", "address": "서울특별시 동대문구 왕산로43다길 5", "si": "서울특별시", "gu": "동대문구", "dong": "청량리동", "loc": {"lat": 37.5862577, "lng": 127.0472758}}, {"name": "회기동 자치회관", "address": "서울특별시 동대문구 회기로25길 12-1", "si": "서울특별시", "gu": "동대문구", "dong": "회기동", "loc": {"lat": 37.590778, "lng": 127.055398}}, {"name": "휘경1동 자치회관", "address": "서울특별시 동대문구 외대역동로 114-1", "si": "서울특별시", "gu": "동대문구", "dong": "휘경1동", "loc": {"lat": 37.59275, "lng": 127.06538}}, {"name": "휘경2동 자치회관", "address": "서울특별시 동대문구 한천로 329", "si": "서울특별시", "gu": "동대문구", "dong": "휘경2동", "loc": {"lat": 37.5901275, "lng": 127.0686227716798}}, {"name": "이문1동 자치회관", "address": "서울특별시 동대문구 외대역동로 114-1", "si": "서울특별시", "gu": "동대문구", "dong": "이문1동", "loc": {"lat": 37.59275, "lng": 127.06538}}, {"name": "이문2동 자치회관", "address": "서울특별시 동대문구 신이문로 27-5", "si": "서울특별시", "gu": "동대문구", "dong": "이문2동", "loc": {"lat": 37.60301, "lng": 127.0647751}}, {"name": "면목본동 자치회관", "address": "서울특별시 중랑구 면목로 397", "si": "서울특별시", "gu": "중랑구", "dong": "면목본동(1,2차)", "loc": {"lat": 37.587364, "lng": 127.087499}}, {"name": "면목2동 자치회관", "address": "서울특별시 중랑구 동일로101길 20-15", "si": "서울특별시", "gu": "중랑구", "dong": "면목2동", "loc": {"lat": 37.5897636, "lng": 127.0790416}}, {"name": "면목3.8동 자치회관", "address": "서울특별시 중랑구 용마산로 393", "si": "서울특별시", "gu": "중랑구", "dong": "면목3.8동", "loc": {"lat": 37.6137974, "lng": 127.1014054}}, {"name": "면목4동 자치회관", "address": "서울특별시 중랑구 면목로 246", "si": "서울특별시", "gu": "중랑구", "dong": "면목4동", "loc": {"lat": 37.5963518, "lng": 127.0855162}}, {"name": "면목5동 자치회관", "address": "서울특별시 중랑구 동일로 619", "si": "서울특별시", "gu": "중랑구", "dong": "면목5동", "loc": {"lat": 37.5986537, "lng": 127.0798699}}, {"name": "면목7동 자치회관", "address": "서울특별시 중랑구 면목로 289", "si": "서울특별시", "gu": "중랑구", "dong": "면목7동", "loc": {"lat": 37.5963518, "lng": 127.0855162}}, {"name": "상봉1동 자치회관", "address": "서울특별시 중랑구 상봉중앙로1길 6", "si": "서울특별시", "gu": "중랑구", "dong": "상봉1동", "loc": {"lat": 37.5999937, "lng": 127.0875079}}, {"name": "상봉2동 자치회관", "address": "서울특별시 중랑구 봉우재로 93-5", "si": "서울특별시", "gu": "중랑구", "dong": "상봉2동", "loc": {"lat": 37.5955156, "lng": 127.0967652}}, {"name": "중화1동 자치회관", "address": "서울특별시 중랑구 동일로134길 17", "si": "서울특별시", "gu": "중랑구", "dong": "중화1동", "loc": {"lat": 37.60114675, "lng": 127.0806413557903}}, {"name": "중화2동 자치회관", "address": "서울특별시 중랑구 중랑역로3길 28", "si": "서울특별시", "gu": "중랑구", "dong": "중화2동", "loc": {"lat": 37.5946961, "lng": 127.0744536}}, {"name": "묵1동 자치회관", "address": "서울특별시 중랑구 공릉로2가길 5", "si": "서울특별시", "gu": "중랑구", "dong": "묵1동", "loc": {"lat": 37.6134206, "lng": 127.078762}}, {"name": "묵2동 자치회관", "address": "서울특별시 중랑구 동일로157길 29", "si": "서울특별시", "gu": "중랑구", "dong": "묵2동", "loc": {"lat": 37.6096085, "lng": 127.0760267}}, {"name": "망우본동 자치회관", "address": "서울특별시 중랑구 망우로67길 10", "si": "서울특별시", "gu": "중랑구", "dong": "망우본동", "loc": {"lat": 37.60056585, "lng": 127.10150471760895}}, {"name": "망우3동 자치회관", "address": "서울특별시 중랑구 용마산로 461", "si": "서울특별시", "gu": "중랑구", "dong": "망우3동", "loc": {"lat": 37.6137974, "lng": 127.1014054}}, {"name": "신내1동 자치회관", "address": "서울특별시 중랑구 용마산로129나길 35", "si": "서울특별시", "gu": "중랑구", "dong": "신내1동", "loc": {"lat": 37.6059303, "lng": 127.09952856699135}}, {"name": "신내2동 자치회관", "address": "서울특별시 중랑구 봉화산로 190", "si": "서울특별시", "gu": "중랑구", "dong": "신내2동", "loc": {"lat": 37.60625615, "lng": 127.09420877849851}}, {"name": "성북동 자치회관", "address": "서울특별시 성북구 성북로 37", "si": "서울특별시", "gu": "성북구", "dong": "성북동", "loc": {"lat": 37.594397, "lng": 126.9925213}}, {"name": "삼선동 자치회관", "address": "서울특별시 성북구 보문로 190", "si": "서울특별시", "gu": "성북구", "dong": "삼선동", "loc": {"lat": 37.5908535, "lng": 127.0146619}}, {"name": "동선동 자치회관", "address": "서울특별시 성북구 동소문로26길 27", "si": "서울특별시", "gu": "성북구", "dong": "동선동", "loc": {"lat": 37.59398735, "lng": 127.02043610000001}}, {"name": "돈암1동 자치회관", "address": "서울특별시 성북구 정릉로 394", "si": "서울특별시", "gu": "성북구", "dong": "돈암1동", "loc": {"lat": 37.6115357, "lng": 126.9920998}}, {"name": "돈암2동 자치회관", "address": "서울특별시 성북구 흥천사길 7", "si": "서울특별시", "gu": "성북구", "dong": "돈암2동", "loc": {"lat": 37.5980185, "lng": 127.0105689}}, {"name": "안암동 자치회관", "address": "서울특별시 성북구 고려대로 16", "si": "서울특별시", "gu": "성북구", "dong": "안암동", "loc": {"lat": 37.5855886, "lng": 127.0201628}}, {"name": "보문동 자치회관", "address": "서울특별시 성북구 안암로3길 35", "si": "서울특별시", "gu": "성북구", "dong": "보문동", "loc": {"lat": 37.5798459, "lng": 127.0234001}}, {"name": "정릉1동 자치회관", "address": "서울특별시 성북구 정릉로38마길 33", "si": "서울특별시", "gu": "성북구", "dong": "정릉1동", "loc": {"lat": 37.6014313, "lng": 127.0166804}}, {"name": "정릉2동 자치회관", "address": "서울특별시 성북구 정릉로26길 1", "si": "서울특별시", "gu": "성북구", "dong": "정릉2동", "loc": {"lat": 37.6044694, "lng": 127.0111539}}, {"name": "정릉3동 자치회관", "address": "서울특별시 성북구 솔샘로1길 6-3", "si": "서울특별시", "gu": "성북구", "dong": "정릉3동", "loc": {"lat": 37.6085444, "lng": 127.003904}}, {"name": "정릉4동 자치회관", "address": "서울특별시 성북구 보국문로 106-1", "si": "서울특별시", "gu": "성북구", "dong": "정릉4동", "loc": {"lat": 37.6098532, "lng": 127.009535}}, {"name": "길음1동 자치회관", "address": "서울특별시 성북구 길음로 92", "si": "서울특별시", "gu": "성북구", "dong": "길음1동", "loc": {"lat": 37.607969, "lng": 127.0211093}}, {"name": "길음2동 자치회관", "address": "서울특별시 성북구 삼양로2길 70", "si": "서울특별시", "gu": "성북구", "dong": "길음2동", "loc": {"lat": 37.6061647, "lng": 127.0256465}}, {"name": "종암동 자치회관", "address": "서울특별시 성북구 종암로 98-8", "si": "서울특별시", "gu": "성북구", "dong": "종암동", "loc": {"lat": 37.5969887, "lng": 127.0348216}}, {"name": "월곡1동 자치회관", "address": "서울특별시 성북구 오패산로 96", "si": "서울특별시", "gu": "성북구", "dong": "월곡1동", "loc": {"lat": 37.61056395, "lng": 127.03576003599989}}, {"name": "월곡2동 자치회관", "address": "서울특별시 성북구 화랑로 152", "si": "서울특별시", "gu": "성북구", "dong": "월곡2동", "loc": {"lat": 37.614328, "lng": 127.06557}}, {"name": "장위1동 자치회관", "address": "서울특별시 성북구 장위로 61", "si": "서울특별시", "gu": "성북구", "dong": "장위1동", "loc": {"lat": 37.61373, "lng": 127.03915}}, {"name": "장위2동 자치회관", "address": "서울특별시 성북구 돌곶이로27길 12", "si": "서울특별시", "gu": "성북구", "dong": "장위2동", "loc": {"lat": 37.6113468, "lng": 127.0534464}}, {"name": "장위3동 자치회관", "address": "서울특별시 성북구 한천로 657", "si": "서울특별시", "gu": "성북구", "dong": "장위3동", "loc": {"lat": 37.6218796, "lng": 127.0518597}}, {"name": "석관동 자치회관", "address": "서울특별시 성북구 화랑로 296", "si": "서울특별시", "gu": "성북구", "dong": "석관동", "loc": {"lat": 37.614328, "lng": 127.06557}}, {"name": "삼양동 자치회관", "address": "서울특별시 강북구 삼양로 268", "si": "서울특별시", "gu": "강북구", "dong": "삼양동", "loc": {"lat": 37.6273418, "lng": 127.0183872}}, {"name": "미아동 자치회관", "address": "서울특별시 강북구 솔매로49길 14", "si": "서울특별시", "gu": "강북구", "dong": "미아동", "loc": {"lat": 37.6270848, "lng": 127.0270683}}, {"name": "송중동 자치회관", "address": "서울특별시 강북구 오패산로 162", "si": "서울특별시", "gu": "강북구", "dong": "송중동", "loc": {"lat": 37.6161293, "lng": 127.0337833}}, {"name": "송천동 자치회관", "address": "서울특별시 강북구 솔샘로 284", "si": "서울특별시", "gu": "강북구", "dong": "송천동", "loc": {"lat": 37.6183081, "lng": 127.0238655}}, {"name": "삼각산동 자치회관", "address": "서울특별시 강북구 삼양로19길 34", "si": "서울특별시", "gu": "강북구", "dong": "삼각산동", "loc": {"lat": 37.6150786, "lng": 127.0208301}}, {"name": "번1동 자치회관", "address": "서울특별시 강북구 덕릉로41길 74", "si": "서울특별시", "gu": "강북구", "dong": "번1동", "loc": {"lat": 37.6378469, "lng": 127.02883002824589}}, {"name": "번2동 자치회관", "address": "서울특별시 강북구 한천로 897", "si": "서울특별시", "gu": "강북구", "dong": "번2동", "loc": {"lat": 37.62518, "lng": 127.04868}}, {"name": "번3동 자치회관", "address": "서울특별시 강북구 한천로105길 21", "si": "서울특별시", "gu": "강북구", "dong": "번3동", "loc": {"lat": 37.6251367, "lng": 127.0448336}}, {"name": "수유1동 자치회관", "address": "서울특별시 강북구 삼양로 299", "si": "서울특별시", "gu": "강북구", "dong": "수유1동", "loc": {"lat": 37.6639607, "lng": 127.0120877}}, {"name": "수유2동 자치회관", "address": "서울특별시 강북구 한천로 1117", "si": "서울특별시", "gu": "강북구", "dong": "수유2동", "loc": {"lat": 37.62518, "lng": 127.04868}}, {"name": "수유3동 자치회관", "address": "서울특별시 강북구 노해로 36", "si": "서울특별시", "gu": "강북구", "dong": "수유3동", "loc": {"lat": 37.6449049, "lng": 127.0237474}}, {"name": "우이동 자치회관", "address": "서울특별시 강북구 삼양로139길 49", "si": "서울특별시", "gu": "강북구", "dong": "우이동", "loc": {"lat": 37.6479273, "lng": 127.0095658}}, {"name": "인수동 자치회관", "address": "서울특별시 강북구 인수봉로 255", "si": "서울특별시", "gu": "강북구", "dong": "인수동", "loc": {"lat": 37.6414795, "lng": 127.0106302}}, {"name": "쌍문1동 자치회관", "address": "서울특별시 도봉구 노해로 147", "si": "서울특별시", "gu": "도봉구", "dong": "쌍문1동", "loc": {"lat": 37.6511525, "lng": 127.0453491}}, {"name": "쌍문2동 자치회관", "address": "서울특별시 도봉구 방학로3길 117", "si": "서울특별시", "gu": "도봉구", "dong": "쌍문2동", "loc": {"lat": 37.6580005, "lng": 127.038856}}, {"name": "쌍문3동 자치회관", "address": "서울특별시 도봉구 노해로44길 9", "si": "서울특별시", "gu": "도봉구", "dong": "쌍문3동", "loc": {"lat": 37.6485213, "lng": 127.0288345}}, {"name": "쌍문4동 자치회관", "address": "서울특별시 도봉구 시루봉로 62-7", "si": "서울특별시", "gu": "도봉구", "dong": "쌍문4동", "loc": {"lat": 37.6547435, "lng": 127.0279507}}, {"name": "방학1동 자치회관", "address": "서울특별시 도봉구 방학로2길 27", "si": "서울특별시", "gu": "도봉구", "dong": "방학1동", "loc": {"lat": 37.6636115, "lng": 127.0398716}}, {"name": "방학2동 자치회관", "address": "서울특별시 도봉구 시루봉로 226", "si": "서울특별시", "gu": "도봉구", "dong": "방학2동", "loc": {"lat": 37.6547435, "lng": 127.0279507}}, {"name": "방학3동 자치회관", "address": "서울특별시 도봉구 시루봉로 94", "si": "서울특별시", "gu": "도봉구", "dong": "방학3동", "loc": {"lat": 37.65915755, "lng": 127.02802254517543}}, {"name": "창1동 자치회관", "address": "서울특별시 도봉구 해등로 46", "si": "서울특별시", "gu": "도봉구", "dong": "창1동", "loc": {"lat": 37.6472581, "lng": 127.0448432}}, {"name": "창2동 자치회관", "address": "서울특별시 도봉구 덕릉로59길 73-3", "si": "서울특별시", "gu": "도봉구", "dong": "창2동", "loc": {"lat": 37.6405842, "lng": 127.0386435}}, {"name": "창3동 자치회관", "address": "서울특별시 도봉구 덕릉로62길 89", "si": "서울특별시", "gu": "도봉구", "dong": "창3동", "loc": {"lat": 37.6382214, "lng": 127.0420792}}, {"name": "창4동 자치회관", "address": "서울특별시 도봉구 마들로13길 218", "si": "서울특별시", "gu": "도봉구", "dong": "창4동", "loc": {"lat": 37.6620922, "lng": 127.0449045}}, {"name": "창5동 자치회관", "address": "서울특별시 도봉구 도봉로136나길 20", "si": "서울특별시", "gu": "도봉구", "dong": "창5동", "loc": {"lat": 37.6563472, "lng": 127.043619}}, {"name": "도봉1동 자치회관", "address": "서울특별시 도봉구 도봉로169나길 22", "si": "서울특별시", "gu": "도봉구", "dong": "도봉1동", "loc": {"lat": 37.6755559, "lng": 127.0436147}}, {"name": "도봉2동 자치회관", "address": "서울특별시 도봉구 마들로 668", "si": "서울특별시", "gu": "도봉구", "dong": "도봉2동", "loc": {"lat": 37.6696587, "lng": 127.0465179}}, {"name": "월계1동 자치회관", "address": "서울특별시 노원구 석계로 59", "si": "서울특별시", "gu": "노원구", "dong": "월계1동", "loc": {"lat": 37.6149158, "lng": 127.0647959}}, {"name": "월계2동 자치회관", "address": "서울특별시 노원구 초안산로5길 28", "si": "서울특별시", "gu": "노원구", "dong": "월계2동", "loc": {"lat": 37.6323479, "lng": 127.0508606}}, {"name": "월계3동 자치회관", "address": "서울특별시 노원구 마들로 57", "si": "서울특별시", "gu": "노원구", "dong": "월계3동", "loc": {"lat": 37.63432, "lng": 127.06006}}, {"name": "공릉1동 자치회관", "address": "서울특별시 노원구 동일로186길 3-24", "si": "서울특별시", "gu": "노원구", "dong": "공릉1동", "loc": {"lat": 37.62479985, "lng": 127.07383330348671}}, {"name": "공릉2동 자치회관", "address": "서울특별시 노원구 노원로1길 68", "si": "서울특별시", "gu": "노원구", "dong": "공릉2동", "loc": {"lat": 37.6204352, "lng": 127.0830114}}, {"name": "하계1동 자치회관", "address": "서울특별시 노원구 노원로 261", "si": "서울특별시", "gu": "노원구", "dong": "하계1동", "loc": {"lat": 37.6215438, "lng": 127.0872984}}, {"name": "하계2동 자치회관", "address": "서울특별시 노원구 공릉로55길 88", "si": "서울특별시", "gu": "노원구", "dong": "하계2동", "loc": {"lat": 37.631975499999996, "lng": 127.06795095000001}}, {"name": "중계본동 자치회관", "address": "서울특별시 노원구 중계로 143", "si": "서울특별시", "gu": "노원구", "dong": "중계본동", "loc": {"lat": 37.6412347, "lng": 127.0830081}}, {"name": "중계1동 자치회관", "address": "서울특별시 노원구 한글비석로 279", "si": "서울특별시", "gu": "노원구", "dong": "중계1동", "loc": {"lat": 37.652548, "lng": 127.0774758}}, {"name": "중계2.3동 자치회관", "address": "서울특별시 노원구 노원로17길 56", "si": "서울특별시", "gu": "노원구", "dong": "중계2.3동", "loc": {"lat": 37.6421309, "lng": 127.0687063}}, {"name": "중계4동 자치회관", "address": "서울특별시 노원구 덕릉로82길 50", "si": "서울특별시", "gu": "노원구", "dong": "중계4동", "loc": {"lat": 37.6587711, "lng": 127.078}}, {"name": "상계1동 자치회관", "address": "서울특별시 노원구 동일로 1697", "si": "서울특별시", "gu": "노원구", "dong": "상계1동", "loc": {"lat": 37.67985835, "lng": 127.0548906}}, {"name": "상계2동 자치회관", "address": "서울특별시 노원구 상계로 118", "si": "서울특별시", "gu": "노원구", "dong": "상계2동", "loc": {"lat": 37.657478, "lng": 127.0678994}}, {"name": "상계3.4동 자치회관", "address": "서울특별시 노원구 덕릉로 859", "si": "서울특별시", "gu": "노원구", "dong": "상계3.4동", "loc": {"lat": 37.6729272, "lng": 127.0832564}}, {"name": "상계5동 자치회관", "address": "서울특별시 노원구 한글비석로 434", "si": "서울특별시", "gu": "노원구", "dong": "상계5동", "loc": {"lat": 37.6335072, "lng": 127.064282}}, {"name": "상계6.7동 자치회관", "address": "서울특별시 노원구 노원로 429", "si": "서울특별시", "gu": "노원구", "dong": "상계6.7동", "loc": {"lat": 37.6548557, "lng": 127.06701600872094}}, {"name": "상계8동 자치회관", "address": "서울특별시 노원구 동일로227길 97", "si": "서울특별시", "gu": "노원구", "dong": "상계8동", "loc": {"lat": 37.66728, "lng": 127.05394}}, {"name": "상계9동 자치회관", "address": "서울특별시 노원구 한글비석로 487", "si": "서울특별시", "gu": "노원구", "dong": "상계9동", "loc": {"lat": 37.6645079, "lng": 127.0638277}}, {"name": "상계10동 자치회관", "address": "서울특별시 노원구 노원로 530", "si": "서울특별시", "gu": "노원구", "dong": "상계10동", "loc": {"lat": 37.6215438, "lng": 127.0872984}}, {"name": "녹변동 자치회관", "address": "서울특별시 은평구 은평로 195", "si": "서울특별시", "gu": "은평구", "dong": "녹변동", "loc": {"lat": 37.5974875, "lng": 126.9099435}}, {"name": "불광1동 자치회관", "address": "서울특별시 은평구 진흥로15길 10", "si": "서울특별시", "gu": "은평구", "dong": "불광1동", "loc": {"lat": 37.610389, "lng": 126.93211262696286}}, {"name": "불광2동 자치회관", "address": "서울특별시 은평구 연서로41길 16", "si": "서울특별시", "gu": "은평구", "dong": "불광2동", "loc": {"lat": 37.6263847, "lng": 126.9272304}}, {"name": "갈현1동 자치회관", "address": "서울특별시 은평구 갈현로 301", "si": "서울특별시", "gu": "은평구", "dong": "갈현1동", "loc": {"lat": 37.6236538, "lng": 126.91666656414473}}, {"name": "갈현2동 자치회관", "address": "서울특별시 은평구 연서로27길 31-6", "si": "서울특별시", "gu": "은평구", "dong": "갈현2동", "loc": {"lat": 37.61866, "lng": 126.915783}}, {"name": "구산동 자치회관", "address": "서울특별시 은평구 갈현로17길 10", "si": "서울특별시", "gu": "은평구", "dong": "구산동", "loc": {"lat": 37.6111833, "lng": 126.9100301}}, {"name": "대조동 자치회관", "address": "서울특별시 은평구 연서로20길 24-3", "si": "서울특별시", "gu": "은평구", "dong": "대조동", "loc": {"lat": 37.6136854, "lng": 126.9206302}}, {"name": "응암1동 자치회관", "address": "서울특별시 은평구 백련산로 179", "si": "서울특별시", "gu": "은평구", "dong": "응암1동", "loc": {"lat": 37.5938975, "lng": 126.9231165}}, {"name": "응암2동 자치회관", "address": "서울특별시 은평구 백련산로 100", "si": "서울특별시", "gu": "은평구", "dong": "응암2동", "loc": {"lat": 37.59461935, "lng": 126.92309587338673}}, {"name": "응암3동 자치회관", "address": "서울특별시 은평구 불광천길 410-17", "si": "서울특별시", "gu": "은평구", "dong": "응암3동", "loc": {"lat": 37.5922353, "lng": 126.91574998126424}}, {"name": "역촌동 자치회관", "address": "서울특별시 은평구 연서로 59", "si": "서울특별시", "gu": "은평구", "dong": "역촌동", "loc": {"lat": 37.6094, "lng": 126.9162}}, {"name": "신사1동 자치회관", "address": "서울특별시 은평구 은평로2길 2", "si": "서울특별시", "gu": "은평구", "dong": "신사1동", "loc": {"lat": 37.5978018, "lng": 126.9118083}}, {"name": "신사2동 자치회관", "address": "서울특별시 은평구 증산로15길 47", "si": "서울특별시", "gu": "은평구", "dong": "신사2동", "loc": {"lat": 37.5903568, "lng": 126.9093197}}, {"name": "증산동 자치회관", "address": "서울특별시 은평구 증산서길 89", "si": "서울특별시", "gu": "은평구", "dong": "증산동", "loc": {"lat": 37.5843584, "lng": 126.90702314605502}}, {"name": "수색동 자치회관", "address": "서울특별시 은평구 은평터널로 27", "si": "서울특별시", "gu": "은평구", "dong": "수색동", "loc": {"lat": 37.594877, "lng": 126.91038009409243}}, {"name": "진관동 자치회관", "address": "서울특별시 은평구 진관2로 31", "si": "서울특별시", "gu": "은평구", "dong": "진관동", "loc": {"lat": 37.6349044, "lng": 126.9210617}}, {"name": "충현동 자치회관", "address": "서울특별시 서대문구 경기대로 40", "si": "서울특별시", "gu": "서대문구", "dong": "충현동", "loc": {"lat": 37.5629282, "lng": 126.9623874}}, {"name": "천연동 자치회관", "address": "서울특별시 서대문구 독립문로 15-7", "si": "서울특별시", "gu": "서대문구", "dong": "천연동", "loc": {"lat": 37.5679034, "lng": 126.9629603}}, {"name": "북아현동 자치회관", "address": "서울특별시 서대문구 북아현로 24", "si": "서울특별시", "gu": "서대문구", "dong": "북아현동", "loc": {"lat": 37.55943405, "lng": 126.95699202876715}}, {"name": "신촌동 자치회관", "address": "서울특별시 서대문구 연세로2나길 47", "si": "서울특별시", "gu": "서대문구", "dong": "신촌동", "loc": {"lat": 37.5573258, "lng": 126.9387222}}, {"name": "연희동 자치회관", "address": "서울특별시 서대문구 증가로 13-10", "si": "서울특별시", "gu": "서대문구", "dong": "연희동", "loc": {"lat": 37.5705757, "lng": 126.9305063}}, {"name": "홍제1동 자치회관", "address": "서울특별시 서대문구 통일로27길 19", "si": "서울특별시", "gu": "서대문구", "dong": "홍제1동", "loc": {"lat": 37.5833476, "lng": 126.9485908}}, {"name": "홍제2동 자치회관", "address": "서울특별시 서대문구 통일로34길 27", "si": "서울특별시", "gu": "서대문구", "dong": "홍제2동", "loc": {"lat": 37.5861065, "lng": 126.9493764}}, {"name": "홍제3동 자치회관", "address": "서울특별시 서대문구 세검정로4길 32", "si": "서울특별시", "gu": "서대문구", "dong": "홍제3동", "loc": {"lat": 37.5938213, "lng": 126.9496589}}, {"name": "홍은1동 자치회관", "address": "서울특별시 서대문구 세검정로1길 45", "si": "서울특별시", "gu": "서대문구", "dong": "홍은1동", "loc": {"lat": 37.5952041, "lng": 126.946268}}, {"name": "홍은2동 자치회관", "address": "서울특별시 서대문구 모래내로 334", "si": "서울특별시", "gu": "서대문구", "dong": "홍은2동", "loc": {"lat": 37.5801524, "lng": 126.9341838}}, {"name": "남가좌1동 자치회관", "address": "서울특별시 서대문구 모래내로15길 37", "si": "서울특별시", "gu": "서대문구", "dong": "남가좌1동", "loc": {"lat": 37.57313, "lng": 126.92033}}, {"name": "남가좌2동 자치회관", "address": "서울특별시 서대문구 증가로10길 28", "si": "서울특별시", "gu": "서대문구", "dong": "남가좌2동", "loc": {"lat": 37.5784404, "lng": 126.9238857}}, {"name": "북가좌1동 자치회관", "address": "서울특별시 서대문구 수색로 100-55", "si": "서울특별시", "gu": "서대문구", "dong": "북가좌1동", "loc": {"lat": 37.5677252, "lng": 126.9180035}}, {"name": "북가좌2동 자치회관", "address": "서울특별시 서대문구 응암로1길 10", "si": "서울특별시", "gu": "서대문구", "dong": "북가좌2동", "loc": {"lat": 37.5816561, "lng": 126.9103948}}, {"name": "공덕동 자치회관", "address": "서울특별시 마포구 만리재옛길 84", "si": "서울특별시", "gu": "마포구", "dong": "공덕동", "loc": {"lat": 37.5501763, "lng": 126.9600556}}, {"name": "아현동 자치회관", "address": "서울특별시 마포구 마포대로7길 18", "si": "서울특별시", "gu": "마포구", "dong": "아현동", "loc": {"lat": 37.5471157, "lng": 126.9521891}}, {"name": "도화동 자치회관", "address": "서울특별시 마포구 도화길 37", "si": "서울특별시", "gu": "마포구", "dong": "도화동", "loc": {"lat": 37.5396926, "lng": 126.9468275}}, {"name": "용강동 자치회관", "address": "서울특별시 마포구 토정로31길 31", "si": "서울특별시", "gu": "마포구", "dong": "용강동", "loc": {"lat": 37.5428, "lng": 126.94372}}, {"name": "대흥동 자치회관", "address": "서울특별시 마포구 신촌로26길 10", "si": "서울특별시", "gu": "마포구", "dong": "대흥동", "loc": {"lat": 37.5553084, "lng": 126.9425782}}, {"name": "염리동 자치회관", "address": "서울특별시 마포구 숭문길 14", "si": "서울특별시", "gu": "마포구", "dong": "염리동", "loc": {"lat": 37.5466859, "lng": 126.9453649}}, {"name": "신수동 자치회관", "address": "서울특별시 마포구 독막로 192", "si": "서울특별시", "gu": "마포구", "dong": "신수동", "loc": {"lat": 37.5477993, "lng": 126.9162091}}, {"name": "서강동 자치회관", "address": "서울특별시 마포구 독막로 165", "si": "서울특별시", "gu": "마포구", "dong": "서강동", "loc": {"lat": 37.5477993, "lng": 126.9162091}}, {"name": "서교동 자치회관", "address": "서울특별시 마포구 동교로15길 7", "si": "서울특별시", "gu": "마포구", "dong": "서교동", "loc": {"lat": 37.5557969, "lng": 126.9142709}}, {"name": "합정동 자치회관", "address": "서울특별시 마포구 월드컵로5길 11", "si": "서울특별시", "gu": "마포구", "dong": "합정동", "loc": {"lat": 37.5515981, "lng": 126.91187005}}, {"name": "망원1동 자치회관", "address": "서울특별시 마포구 포은로6길 10", "si": "서울특별시", "gu": "마포구", "dong": "망원1동", "loc": {"lat": 37.5558809, "lng": 126.9062727}}, {"name": "망원2동 자치회관", "address": "서울특별시 마포구 방울내로7길 11", "si": "서울특별시", "gu": "마포구", "dong": "망원2동", "loc": {"lat": 37.5610224, "lng": 126.9019679}}, {"name": "연남동 자치회관", "address": "서울특별시 마포구 성미산로29길 17-9", "si": "서울특별시", "gu": "마포구", "dong": "연남동", "loc": {"lat": 37.5653167, "lng": 126.9220628}}, {"name": "성산1동 자치회관", "address": "서울특별시 마포구 성산로4길 15", "si": "서울특별시", "gu": "마포구", "dong": "성산1동", "loc": {"lat": 37.5633025, "lng": 126.9078648}}, {"name": "성산2동 자치회관", "address": "서울특별시 마포구 월드컵북로30길 22", "si": "서울특별시", "gu": "마포구", "dong": "성산2동", "loc": {"lat": 37.5685917, "lng": 126.908993283842}}, {"name": "상암동 자치회관", "address": "서울특별시 마포구 매봉산로2길 16", "si": "서울특별시", "gu": "마포구", "dong": "상암동", "loc": {"lat": 37.5783412, "lng": 126.89468943891342}}, {"name": "목1동 자치회관", "address": "서울특별시 양천구 목동서로 192", "si": "서울특별시", "gu": "양천구", "dong": "목1동", "loc": {"lat": 37.5303199, "lng": 126.8712307}}, {"name": "목2동 자치회관", "address": "서울특별시 양천구 목동중앙본로 120", "si": "서울특별시", "gu": "양천구", "dong": "목2동", "loc": {"lat": 37.546126900000004, "lng": 126.87169819453919}}, {"name": "목3동 자치회관", "address": "서울특별시 양천구 목동중앙남로16나길 55", "si": "서울특별시", "gu": "양천구", "dong": "목3동", "loc": {"lat": 37.5447128, "lng": 126.8644592990214}}, {"name": "목4동 자치회관", "address": "서울특별시 양천구 목동중앙로 25", "si": "서울특별시", "gu": "양천구", "dong": "목4동", "loc": {"lat": 37.5324073, "lng": 126.8683621}}, {"name": "목5동 자치회관", "address": "서울특별시 양천구 목동서로 41", "si": "서울특별시", "gu": "양천구", "dong": "목5동", "loc": {"lat": 37.53719715, "lng": 126.88172965580759}}, {"name": "신월1동 자치회관", "address": "서울특별시 양천구 곰달래로1길 38", "si": "서울특별시", "gu": "양천구", "dong": "신월1동", "loc": {"lat": 37.5325257, "lng": 126.831595}}, {"name": "신월2동 자치회관", "address": "서울특별시 양천구 중앙로53길 47", "si": "서울특별시", "gu": "양천구", "dong": "신월2동", "loc": {"lat": 37.5252997, "lng": 126.8456553}}, {"name": "신월3동 자치회관", "address": "서울특별시 양천구 남부순환로54길 5", "si": "서울특별시", "gu": "양천구", "dong": "신월3동", "loc": {"lat": 37.5324378, "lng": 126.8284282}}, {"name": "신월4동 자치회관", "address": "서울특별시 양천구 오목로5길 34", "si": "서울특별시", "gu": "양천구", "dong": "신월4동", "loc": {"lat": 37.5240112, "lng": 126.8402448}}, {"name": "신월5동 자치회관", "address": "서울특별시 양천구 화곡로4길 10", "si": "서울특별시", "gu": "양천구", "dong": "신월5동", "loc": {"lat": 37.5371607, "lng": 126.8291793}}, {"name": "신월6동 자치회관", "address": "서울특별시 양천구 남부순환로83길 53", "si": "서울특별시", "gu": "양천구", "dong": "신월6동", "loc": {"lat": 37.5165285, "lng": 126.8433556}}, {"name": "신월7동 자치회관", "address": "서울특별시 양천구 남부순환로70길 16-3", "si": "서울특별시", "gu": "양천구", "dong": "신월7동", "loc": {"lat": 37.5218198, "lng": 126.8354248}}, {"name": "신정1동 자치회관", "address": "서울특별시 양천구 중앙로32길 1", "si": "서울특별시", "gu": "양천구", "dong": "신정1동", "loc": {"lat": 37.51924, "lng": 126.85754}}, {"name": "신정2동 자치회관", "address": "서울특별시 양천구 목동동로 154", "si": "서울특별시", "gu": "양천구", "dong": "신정2동", "loc": {"lat": 37.5192067, "lng": 126.8706968}}, {"name": "신정3동 자치회관", "address": "서울특별시 양천구 중앙로 209", "si": "서울특별시", "gu": "양천구", "dong": "신정3동", "loc": {"lat": 37.51514135, "lng": 126.85480878905096}}, {"name": "신정4동 자치회관", "address": "서울특별시 양천구 오목로34길 5", "si": "서울특별시", "gu": "양천구", "dong": "신정4동", "loc": {"lat": 37.5239957, "lng": 126.8557007}}, {"name": "신정6동 자치회관", "address": "서울특별시 양천구 목동서로 353", "si": "서울특별시", "gu": "양천구", "dong": "신정6동", "loc": {"lat": 37.51706595, "lng": 126.8644757540225}}, {"name": "신정7동 자치회관", "address": "서울특별시 양천구 목동동로 37", "si": "서울특별시", "gu": "양천구", "dong": "신정7동", "loc": {"lat": 37.5160858, "lng": 126.8653486}}, {"name": "염창동 자치회관", "address": "서울특별시 강서구 양천로67가길 63", "si": "서울특별시", "gu": "강서구", "dong": "염창동", "loc": {"lat": 37.5543366, "lng": 126.8697005}}, {"name": "등촌1동 자치회관", "address": "서울특별시 강서구 공항대로53가길 55", "si": "서울특별시", "gu": "강서구", "dong": "등촌1동", "loc": {"lat": 37.5546086, "lng": 126.8592392}}, {"name": "등촌2동 자치회관", "address": "서울특별시 강서구 등촌로 143", "si": "서울특별시", "gu": "강서구", "dong": "등촌2동", "loc": {"lat": 37.5515987, "lng": 126.8639552}}, {"name": "등촌3동 자치회관", "address": "서울특별시 강서구 화곡로63길 96", "si": "서울특별시", "gu": "강서구", "dong": "등촌3동", "loc": {"lat": 37.5588691, "lng": 126.847941}}, {"name": "화곡본동 자치회관", "address": "서울특별시 강서구 초록마을로5길 29", "si": "서울특별시", "gu": "강서구", "dong": "화곡본동", "loc": {"lat": 37.5440294, "lng": 126.84771006119117}}, {"name": "화곡1동 자치회관", "address": "서울특별시 강서구 곰달래로 79", "si": "서울특별시", "gu": "강서구", "dong": "화곡1동", "loc": {"lat": 37.5304841, "lng": 126.8415804}}, {"name": "화곡2동 자치회관", "address": "서울특별시 강서구 곰달래로37길 13", "si": "서울특별시", "gu": "강서구", "dong": "화곡2동", "loc": {"lat": 37.5328386, "lng": 126.8549885}}, {"name": "화곡3동 자치회관", "address": "서울특별시 강서구 강서로33가길 17", "si": "서울특별시", "gu": "강서구", "dong": "화곡3동", "loc": {"lat": 37.5425305, "lng": 126.83843448282973}}, {"name": "화곡4동 자치회관", "address": "서울특별시 강서구 곰달래로57가길 26", "si": "서울특별시", "gu": "강서구", "dong": "화곡4동", "loc": {"lat": 37.5346752, "lng": 126.8603424}}, {"name": "화곡6동 자치회관", "address": "서울특별시 강서구 화곡로 312", "si": "서울특별시", "gu": "강서구", "dong": "화곡6동", "loc": {"lat": 37.5403629, "lng": 126.8355894}}, {"name": "화곡8동 자치회관", "address": "서울특별시 강서구 곰달래로25길 45", "si": "서울특별시", "gu": "강서구", "dong": "화곡8동", "loc": {"lat": 37.5314071, "lng": 126.8490879}}, {"name": "우장산동 자치회관", "address": "서울특별시 강서구 우현로 34", "si": "서울특별시", "gu": "강서구", "dong": "우장산동", "loc": {"lat": 37.5483601, "lng": 126.8417581}}, {"name": "가양1동 자치회관", "address": "서울특별시 강서구 허준로 30", "si": "서울특별시", "gu": "강서구", "dong": "가양1동", "loc": {"lat": 37.56946595, "lng": 126.84470315975787}}, {"name": "가양2동 자치회관", "address": "서울특별시 강서구 허준로 93", "si": "서울특별시", "gu": "강서구", "dong": "가양2동", "loc": {"lat": 37.5652368, "lng": 126.8535763}}, {"name": "가양3동 자치회관", "address": "서울특별시 강서구 허준로 202", "si": "서울특별시", "gu": "강서구", "dong": "가양3동", "loc": {"lat": 37.5652368, "lng": 126.8535763}}, {"name": "발산1동 자치회관", "address": "서울특별시 강서구 강서로47가길 54", "si": "서울특별시", "gu": "강서구", "dong": "발산1동", "loc": {"lat": 37.5517469, "lng": 126.8355802}}, {"name": "공항동 자치회관", "address": "서울특별시 강서구 송정로 45", "si": "서울특별시", "gu": "강서구", "dong": "공항동", "loc": {"lat": 37.5580738, "lng": 126.8111162}}, {"name": "방화1동 자치회관", "address": "서울특별시 강서구 방화대로 330", "si": "서울특별시", "gu": "강서구", "dong": "방화1동", "loc": {"lat": 37.5704296, "lng": 126.8170135}}, {"name": "방화2동 자치회관", "address": "서울특별시 강서구 개화동로23길 20", "si": "서울특별시", "gu": "강서구", "dong": "방화2동", "loc": {"lat": 37.5667208, "lng": 126.8067563}}, {"name": "방화3동 자치회관", "address": "서울특별시 강서구 금낭화로24길 5", "si": "서울특별시", "gu": "강서구", "dong": "방화3동", "loc": {"lat": 37.57874435, "lng": 126.8135407771909}}, {"name": "신도림동 자치회관", "address": "서울특별시 구로구 신도림로 40", "si": "서울특별시", "gu": "구로구", "dong": "신도림동", "loc": {"lat": 37.5088666, "lng": 126.8816162}}, {"name": "구로1동 자치회관", "address": "서울특별시 구로구 구일로4길 57", "si": "서울특별시", "gu": "구로구", "dong": "구로1동", "loc": {"lat": 37.4918755, "lng": 126.8760577}}, {"name": "구로2동 자치회관", "address": "서울특별시 구로구 구로동로 141", "si": "서울특별시", "gu": "구로구", "dong": "구로2동", "loc": {"lat": 37.4943056, "lng": 126.8829728}}, {"name": "구로3동 자치회관", "address": "서울특별시 구로구 디지털로31길 109", "si": "서울특별시", "gu": "구로구", "dong": "구로3동", "loc": {"lat": 37.48740095, "lng": 126.89039984436944}}, {"name": "구로4동 자치회관", "address": "서울특별시 구로구 도림로 9", "si": "서울특별시", "gu": "구로구", "dong": "구로4동", "loc": {"lat": 37.4870646, "lng": 126.8880979}}, {"name": "구로5동 자치회관", "address": "서울특별시 구로구 구로중앙로28길 66", "si": "서울특별시", "gu": "구로구", "dong": "구로5동", "loc": {"lat": 37.49954, "lng": 126.88761}}, {"name": "가리봉동 자치회관", "address": "서울특별시 구로구 우마2길 35", "si": "서울특별시", "gu": "구로구", "dong": "가리봉동", "loc": {"lat": 37.4824994, "lng": 126.8900308}}, {"name": "고척1동 자치회관", "address": "서울특별시 구로구 중앙로3길 18-8", "si": "서울특별시", "gu": "구로구", "dong": "고척1동", "loc": {"lat": 37.4990811, "lng": 126.8617107}}, {"name": "고척2동 자치회관", "address": "서울특별시 구로구 중앙로15길 22", "si": "서울특별시", "gu": "구로구", "dong": "고척2동", "loc": {"lat": 37.508461, "lng": 126.8517475}}, {"name": "개봉1동 자치회관", "address": "서울특별시 구로구 고척로25길 7", "si": "서울특별시", "gu": "구로구", "dong": "개봉1동", "loc": {"lat": 37.505826, "lng": 126.8448661}}, {"name": "개봉2동 자치회관", "address": "서울특별시 구로구 개봉로16가길 17", "si": "서울특별시", "gu": "구로구", "dong": "개봉2동", "loc": {"lat": 37.4905437, "lng": 126.8577851}}, {"name": "개봉3동 자치회관", "address": "서울특별시 구로구 개봉로3길 47-5", "si": "서울특별시", "gu": "구로구", "dong": "개봉3동", "loc": {"lat": 37.4856282, "lng": 126.8506196}}, {"name": "오류1동 자치회관", "address": "서울특별시 구로구 경인로27길 7", "si": "서울특별시", "gu": "구로구", "dong": "오류1동", "loc": {"lat": 37.4976506, "lng": 126.8442157}}, {"name": "오류2동 자치회관", "address": "서울특별시 구로구 오류로 45", "si": "서울특별시", "gu": "구로구", "dong": "오류2동", "loc": {"lat": 37.4879079, "lng": 126.8396875}}, {"name": "수궁동 자치회관", "address": "서울특별시 구로구 궁동 213-42", "si": "서울특별시", "gu": "구로구", "dong": "수궁동", "loc": {"lat": 37.5006694, "lng": 126.8280726}}, {"name": "가산동 자치회관", "address": "서울특별시 금천구 가산로 129", "si": "서울특별시", "gu": "금천구", "dong": "가산동", "loc": {"lat": 37.4767949, "lng": 126.8921251}}, {"name": "독산1동 자치회관", "address": "서울특별시 금천구 시흥대로123길 11", "si": "서울특별시", "gu": "금천구", "dong": "독산1동", "loc": {"lat": 37.4723043, "lng": 126.8949927}}, {"name": "독산2동 자치회관", "address": "서울특별시 금천구 범안로 1240-7", "si": "서울특별시", "gu": "금천구", "dong": "독산2동", "loc": {"lat": 37.4665454, "lng": 126.8914669}}, {"name": "독산3동 자치회관", "address": "서울특별시 금천구 독산로 317", "si": "서울특별시", "gu": "금천구", "dong": "독산3동", "loc": {"lat": 37.47513505, "lng": 126.90322736284884}}, {"name": "독산4동 자치회관", "address": "서울특별시 금천구 독산로 232", "si": "서울특별시", "gu": "금천구", "dong": "독산4동", "loc": {"lat": 37.4484751, "lng": 126.9029899}}, {"name": "시흥1동 자치회관", "address": "서울특별시 금천구 시흥대로58길 36", "si": "서울특별시", "gu": "금천구", "dong": "시흥1동", "loc": {"lat": 37.4535184, "lng": 126.90325504621562}}, {"name": "시흥2동 자치회관", "address": "서울특별시 금천구 금하로 764", "si": "서울특별시", "gu": "금천구", "dong": "시흥2동", "loc": {"lat": 37.4496013, "lng": 126.9144265}}, {"name": "싱흥3동 자치회관", "address": "서울특별시 금천구 시흥대로18길 40", "si": "서울특별시", "gu": "금천구", "dong": "싱흥3동", "loc": {"lat": 37.44028835, "lng": 126.90581391024591}}, {"name": "시흥4동 자치회관", "address": "서울특별시 금천구 독산로36길 14", "si": "서울특별시", "gu": "금천구", "dong": "시흥4동", "loc": {"lat": 37.4610779, "lng": 126.9086584}}, {"name": "시흥5동 자치회관", "address": "서울특별시 금천구 금하로21길 20", "si": "서울특별시", "gu": "금천구", "dong": "시흥5동", "loc": {"lat": 37.4522108, "lng": 126.9081021}}, {"name": "영등포본동 자치회관", "address": "서울특별시 영등포구 신길로61길 17", "si": "서울특별시", "gu": "영등포구", "dong": "영등포본동", "loc": {"lat": 37.5144067, "lng": 126.910022}}, {"name": "영등포동 자치회관", "address": "서울특별시 영등포구 영등포로53길 22", "si": "서울특별시", "gu": "영등포구", "dong": "영등포동", "loc": {"lat": 37.5185936, "lng": 126.9120077}}, {"name": "여의동 자치회관", "address": "서울특별시 영등포구 국제금융로 124", "si": "서울특별시", "gu": "영등포구", "dong": "여의동", "loc": {"lat": 37.5177146, "lng": 126.9346226}}, {"name": "당산1동 자치회관", "address": "서울특별시 영등포구 양산로23길 11", "si": "서울특별시", "gu": "영등포구", "dong": "당산1동", "loc": {"lat": 37.5246737, "lng": 126.897616}}, {"name": "당산2동 자치회관", "address": "서울특별시 영등포구 당산로41가길 7", "si": "서울특별시", "gu": "영등포구", "dong": "당산2동", "loc": {"lat": 37.5310133, "lng": 126.89733301346153}}, {"name": "도림동 자치회관", "address": "서울특별시 영등포구 도영로7길 10", "si": "서울특별시", "gu": "영등포구", "dong": "도림동", "loc": {"lat": 37.5089853, "lng": 126.8960678}}, {"name": "문래동 자치회관", "address": "서울특별시 영등포구 문래로28길 15", "si": "서울특별시", "gu": "영등포구", "dong": "문래동", "loc": {"lat": 37.5168505, "lng": 126.8992168}}, {"name": "양평1동 자치회관", "address": "서울특별시 영등포구 영등포로11길 12", "si": "서울특별시", "gu": "영등포구", "dong": "양평1동", "loc": {"lat": 37.5242156, "lng": 126.8881595}}, {"name": "양평2동 자치회관", "address": "서울특별시 영등포구 양평로20길 8-1", "si": "서울특별시", "gu": "영등포구", "dong": "양평2동", "loc": {"lat": 37.5386996, "lng": 126.8964016}}, {"name": "신길1동 자치회관", "address": "서울특별시 영등포구 영등포로84길 24-5", "si": "서울특별시", "gu": "영등포구", "dong": "신길1동", "loc": {"lat": 37.5110301, "lng": 126.9219823}}, {"name": "신길3동 자치회관", "address": "서울특별시 영등포구 신길로41라길 13-8", "si": "서울특별시", "gu": "영등포구", "dong": "신길3동", "loc": {"lat": 37.5077217, "lng": 126.9076467}}, {"name": "신길4동 자치회관", "address": "서울특별시 영등포구 신길로42길 1", "si": "서울특별시", "gu": "영등포구", "dong": "신길4동", "loc": {"lat": 37.5069745, "lng": 126.9138037}}, {"name": "신길5동 자치회관", "address": "서울특별시 영등포구 도림로 264", "si": "서울특별시", "gu": "영등포구", "dong": "신길5동", "loc": {"lat": 37.50160715, "lng": 126.90524346811046}}, {"name": "신길6동 자치회관", "address": "서울특별시 영등포구 대방천로 169", "si": "서울특별시", "gu": "영등포구", "dong": "신길6동", "loc": {"lat": 37.4993739, "lng": 126.9098518}}, {"name": "신길7동 자치회관", "address": "서울특별시 영등포구 여의대방로43길 10", "si": "서울특별시", "gu": "영등포구", "dong": "신길7동", "loc": {"lat": 37.5063831, "lng": 126.9214518}}, {"name": "대림1동 자치회관", "address": "서울특별시 영등포구 디지털로 441", "si": "서울특별시", "gu": "영등포구", "dong": "대림1동", "loc": {"lat": 37.4876288, "lng": 126.8979424}}, {"name": "대림2동 자치회관", "address": "서울특별시 영등포구 대림로23길 25", "si": "서울특별시", "gu": "영등포구", "dong": "대림2동", "loc": {"lat": 37.4927457, "lng": 126.8982706}}, {"name": "대림3동 자치회관", "address": "서울특별시 영등포구 대림로 197", "si": "서울특별시", "gu": "영등포구", "dong": "대림3동", "loc": {"lat": 37.4982976, "lng": 126.8980585}}, {"name": "노량진1동 자치회관", "address": "서울특별시 동작구 장승배기로28길 30", "si": "서울특별시", "gu": "동작구", "dong": "노량진1동", "loc": {"lat": 37.5123107, "lng": 126.9420168}}, {"name": "노량진2동 자치회관", "address": "서울특별시 동작구 장승배기로19길 48", "si": "서울특별시", "gu": "동작구", "dong": "노량진2동", "loc": {"lat": 37.508521650000006, "lng": 126.93732630092654}}, {"name": "상도1동 자치회관", "address": "서울특별시 동작구 상도로53길 9", "si": "서울특별시", "gu": "동작구", "dong": "상도1동", "loc": {"lat": 37.4980513, "lng": 126.953066}}, {"name": "상도2동 자치회관", "address": "서울특별시 동작구 상도로 211", "si": "서울특별시", "gu": "동작구", "dong": "상도2동", "loc": {"lat": 37.5054301, "lng": 126.942299}}, {"name": "상도3동 자치회관", "address": "서울특별시 동작구 성대로2길 11", "si": "서울특별시", "gu": "동작구", "dong": "상도3동", "loc": {"lat": 37.4991155, "lng": 126.93136741129118}}, {"name": "상도4동 자치회관", "address": "서울특별시 동작구 성대로29길 53", "si": "서울특별시", "gu": "동작구", "dong": "상도4동", "loc": {"lat": 37.500902, "lng": 126.9376787}}, {"name": "흑석동 자치회관", "address": "서울특별시 동작구 흑석한강로 11", "si": "서울특별시", "gu": "동작구", "dong": "흑석동", "loc": {"lat": 37.505817, "lng": 126.9666128}}, {"name": "사당1동 자치회관", "address": "서울특별시 동작구 동작대로17길 28", "si": "서울특별시", "gu": "동작구", "dong": "사당1동", "loc": {"lat": 37.48302305, "lng": 126.97877106214318}}, {"name": "사당2동 자치회관", "address": "서울특별시 동작구 동작대로29길 52", "si": "서울특별시", "gu": "동작구", "dong": "사당2동", "loc": {"lat": 37.4886397, "lng": 126.979257}}, {"name": "사당3동 자치회관", "address": "서울특별시 동작구 사당로17길 86", "si": "서울특별시", "gu": "동작구", "dong": "사당3동", "loc": {"lat": 37.486664250000004, "lng": 126.97204709034438}}, {"name": "사당4동 자치회관", "address": "서울특별시 동작구 사당로16아길 6", "si": "서울특별시", "gu": "동작구", "dong": "사당4동", "loc": {"lat": 37.4809533, "lng": 126.9716647}}, {"name": "사당5동 자치회관", "address": "서울특별시 동작구 사당로2가길 219", "si": "서울특별시", "gu": "동작구", "dong": "사당5동", "loc": {"lat": 37.485614749999996, "lng": 126.96700935326328}}, {"name": "대방동 자치회관", "address": "서울특별시 동작구 여의대방로44길 20", "si": "서울특별시", "gu": "동작구", "dong": "대방동", "loc": {"lat": 37.50811065, "lng": 126.9262731}}, {"name": "신대방1동 자치회관", "address": "서울특별시 동작구 신대방길 72", "si": "서울특별시", "gu": "동작구", "dong": "신대방1동", "loc": {"lat": 37.4889356, "lng": 126.9100471}}, {"name": "신대방2동 자치회관", "address": "서울특별시 동작구 여의대방로24길 106", "si": "서울특별시", "gu": "동작구", "dong": "신대방2동", "loc": {"lat": 37.499102, "lng": 126.9260285}}, {"name": "보라매동 자치회관", "address": "서울특별시 관악구 봉천로 279-8", "si": "서울특별시", "gu": "관악구", "dong": "보라매동", "loc": {"lat": 37.4829738, "lng": 126.9485468}}, {"name": "중앙동 자치회관", "address": "서울특별시 관악구 양녕로6다길 7", "si": "서울특별시", "gu": "관악구", "dong": "중앙동", "loc": {"lat": 37.484114, "lng": 126.94979420474712}}, {"name": "청림동 자치회관", "address": "서울특별시 관악구 관악로40길 39", "si": "서울특별시", "gu": "관악구", "dong": "청림동", "loc": {"lat": 37.4918207, "lng": 126.9586072}}, {"name": "행운동 자치회관", "address": "서울특별시 관악구 행운1길 43", "si": "서울특별시", "gu": "관악구", "dong": "행운동", "loc": {"lat": 37.4806266, "lng": 126.9570766}}, {"name": "청룡동 자치회관", "address": "서울특별시 관악구 쑥고개로 44", "si": "서울특별시", "gu": "관악구", "dong": "청룡동", "loc": {"lat": 37.47910325, "lng": 126.94163714999999}}, {"name": "낙성대동 자치회관", "address": "서울특별시 관악구 낙성대로4가길 5", "si": "서울특별시", "gu": "관악구", "dong": "낙성대동", "loc": {"lat": 37.47627505, "lng": 126.9584078}}, {"name": "인헌동 자치회관", "address": "서울특별시 관악구 남부순환로246가길 20", "si": "서울특별시", "gu": "관악구", "dong": "인헌동", "loc": {"lat": 37.4751124, "lng": 126.9652287}}, {"name": "남현동 자치회관", "address": "서울특별시 관악구 남현1가길 29", "si": "서울특별시", "gu": "관악구", "dong": "남현동", "loc": {"lat": 37.4747744, "lng": 126.9777284}}, {"name": "신림동 자치회관", "address": "서울특별시 관악구 신림동길 14", "si": "서울특별시", "gu": "관악구", "dong": "신림동", "loc": {"lat": 37.48740505, "lng": 126.92715331638146}}, {"name": "조원동 자치회관", "address": "서울특별시 관악구 조원로12길 25", "si": "서울특별시", "gu": "관악구", "dong": "조원동", "loc": {"lat": 37.4827156, "lng": 126.9078745}}, {"name": "난곡동 자치회관", "address": "서울특별시 관악구 난곡로30길 40", "si": "서울특별시", "gu": "관악구", "dong": "난곡동", "loc": {"lat": 37.4709304, "lng": 126.9216413}}, {"name": "난향동 자치회관", "address": "서울특별시 관악구 난곡로 67", "si": "서울특별시", "gu": "관악구", "dong": "난향동", "loc": {"lat": 37.4615331, "lng": 126.9187322}}, {"name": "서원동 자치회관", "address": "서울특별시 관악구 신림로 282", "si": "서울특별시", "gu": "관악구", "dong": "서원동", "loc": {"lat": 37.4843157, "lng": 126.929643}}, {"name": "신원동 자치회관", "address": "서울특별시 관악구 신원로3길 13-6", "si": "서울특별시", "gu": "관악구", "dong": "신원동", "loc": {"lat": 37.4823136, "lng": 126.9267811}}, {"name": "서림동 자치회관", "address": "서울특별시 관악구 신림로29길 6", "si": "서울특별시", "gu": "관악구", "dong": "서림동", "loc": {"lat": 37.474958349999994, "lng": 126.93499916839461}}, {"name": "대학동 자치회관", "address": "서울특별시 관악구 신림로 111", "si": "서울특별시", "gu": "관악구", "dong": "대학동", "loc": {"lat": 37.4843157, "lng": 126.929643}}, {"name": "은천동 자치회관", "address": "서울특별시 관악구 국회단지2길 29-10", "si": "서울특별시", "gu": "관악구", "dong": "은천동", "loc": {"lat": 37.4866647, "lng": 126.9406822}}, {"name": "성현동 자치회관", "address": "서울특별시 관악구 관악로 255-7", "si": "서울특별시", "gu": "관악구", "dong": "성현동", "loc": {"lat": 37.4887718, "lng": 126.9578871}}, {"name": "신사동 자치회관", "address": "서울특별시 관악구 조원로 151-1 ", "si": "서울특별시", "gu": "관악구", "dong": "신사동", "loc": {"lat": 37.4833955, "lng": 126.9053682}}, {"name": "미성동 자치회관", "address": "서울특별시 관악구 난곡로52길 16", "si": "서울특별시", "gu": "관악구", "dong": "미성동", "loc": {"lat": 37.4782738, "lng": 126.9161957}}, {"name": "삼성동 자치회관", "address": "서울특별시 관악구 호암로 520", "si": "서울특별시", "gu": "관악구", "dong": "삼성동", "loc": {"lat": 37.4596695, "lng": 126.9226797}}, {"name": "서초1동 자치회관", "address": "서울특별시 서초구 사임당로 89", "si": "서울특별시", "gu": "서초구", "dong": "서초1동", "loc": {"lat": 37.4922129, "lng": 127.0273037}}, {"name": "서초2동 자치회관", "address": "서울특별시 서초구 서초대로70길 51", "si": "서울특별시", "gu": "서초구", "dong": "서초2동", "loc": {"lat": 37.492058799999995, "lng": 127.02495739641161}}, {"name": "서초3동 자치회관", "address": "서울특별시 서초구 반포대로 34", "si": "서울특별시", "gu": "서초구", "dong": "서초3동", "loc": {"lat": 37.5077658, "lng": 126.9997845}}, {"name": "서초4동 자치회관", "address": "서울특별시 서초구 서운로26길 3", "si": "서울특별시", "gu": "서초구", "dong": "서초4동", "loc": {"lat": 37.50266565, "lng": 127.02217307805415}}, {"name": "잠원동 자치회관", "address": "서울특별시 서초구 나루터로 38", "si": "서울특별시", "gu": "서초구", "dong": "잠원동", "loc": {"lat": 37.5149363, "lng": 127.0140292}}, {"name": "반포본동 자치회관", "address": "서울특별시 서초구 신반포로 10", "si": "서울특별시", "gu": "서초구", "dong": "반포본동", "loc": {"lat": 37.5100644, "lng": 127.0195318}}, {"name": "반포1동 자치회관", "address": "서울특별시 서초구 사평대로 273", "si": "서울특별시", "gu": "서초구", "dong": "반포1동", "loc": {"lat": 37.50508325, "lng": 127.01339390736628}}, {"name": "반포2동 자치회관", "address": "서울특별시 서초구 신반포로15길 16", "si": "서울특별시", "gu": "서초구", "dong": "반포2동", "loc": {"lat": 37.504572550000006, "lng": 126.99451027582955}}, {"name": "반포3동 자치회관", "address": "서울특별시 서초구 신반포로23길 78", "si": "서울특별시", "gu": "서초구", "dong": "반포3동", "loc": {"lat": 37.5083279, "lng": 127.0032639}}, {"name": "반포4동 자치회관", "address": "서울특별시 서초구 사평대로28길 70", "si": "서울특별시", "gu": "서초구", "dong": "반포4동", "loc": {"lat": 37.4990959, "lng": 127.0000948}}, {"name": "방배본동 자치회관", "address": "서울특별시 서초구 동광로19길 38", "si": "서울특별시", "gu": "서초구", "dong": "방배본동", "loc": {"lat": 37.4957394, "lng": 126.9875352}}, {"name": "방배1동 자치회관", "address": "서울특별시 서초구 효령로29길 43", "si": "서울특별시", "gu": "서초구", "dong": "방배1동", "loc": {"lat": 37.483853, "lng": 126.9944125}}, {"name": "방배2동 자치회관", "address": "서울특별시 서초구 청두곶길 36", "si": "서울특별시", "gu": "서초구", "dong": "방배2동", "loc": {"lat": 37.4823647, "lng": 126.9856137}}, {"name": "방배3동 자치회관", "address": "서울특별시 서초구 방배로 40", "si": "서울특별시", "gu": "서초구", "dong": "방배3동", "loc": {"lat": 37.4843821, "lng": 126.9957527}}, {"name": "방배4동 자치회관", "address": "서울특별시 서초구 방배로 173", "si": "서울특별시", "gu": "서초구", "dong": "방배4동", "loc": {"lat": 37.4843821, "lng": 126.9957527}}, {"name": "양재1동 자치회관", "address": "서울특별시 서초구 바우뫼로 41", "si": "서울특별시", "gu": "서초구", "dong": "양재1동", "loc": {"lat": 37.4716352, "lng": 127.0267078}}, {"name": "양재2동 자치회관", "address": "서울특별시 서초구 강남대로12길 44", "si": "서울특별시", "gu": "서초구", "dong": "양재2동", "loc": {"lat": 37.4705922, "lng": 127.0412234}}, {"name": "내곡동 자치회관", "address": "서울특별시 서초구 청계산로15길 77", "si": "서울특별시", "gu": "서초구", "dong": "내곡동", "loc": {"lat": 37.4466651, "lng": 127.0593518}}, {"name": "신사동 주민자치센터", "address": "서울특별시 강남구 압구정로 128", "si": "서울특별시", "gu": "강남구", "dong": "신사동", "loc": {"lat": 37.5239801, "lng": 127.02282734798115}}, {"name": "논현1동 주민자치센터", "address": "서울특별시 강남구 학동로20길 25", "si": "서울특별시", "gu": "강남구", "dong": "논현1동", "loc": {"lat": 37.5115546, "lng": 127.0284464}}, {"name": "논현2동 주민자치센터", "address": "서울특별시 강남구 학동로43길 17", "si": "서울특별시", "gu": "강남구", "dong": "논현2동", "loc": {"lat": 37.5173754, "lng": 127.0371963}}, {"name": "압구정동 주민자치센터", "address": "서울특별시 강남구 압구정로33길 48", "si": "서울특별시", "gu": "강남구", "dong": "압구정동", "loc": {"lat": 37.5293732, "lng": 127.0296664}}, {"name": "청담동 주민자치센터", "address": "서울특별시 강남구 압구정로79길 26", "si": "서울특별시", "gu": "강남구", "dong": "청담동", "loc": {"lat": 37.5254445, "lng": 127.0507865}}, {"name": "삼성1동 주민자치센터", "address": "서울특별시 강남구 봉은사로 616", "si": "서울특별시", "gu": "강남구", "dong": "삼성1동", "loc": {"lat": 37.514342549999995, "lng": 127.06254663143731}}, {"name": "삼성2동 주민자치센터", "address": "서울특별시 강남구 봉은사로 419", "si": "서울특별시", "gu": "강남구", "dong": "삼성2동", "loc": {"lat": 37.5111921, "lng": 127.0459885}}, {"name": "대치1동 주민자치센터", "address": "서울특별시 강남구 남부순환로391길 19", "si": "서울특별시", "gu": "강남구", "dong": "대치1동", "loc": {"lat": 37.4932911, "lng": 127.0568027}}, {"name": "대치2동 주민자치센터", "address": "서울특별시 강남구 영동대로65길 24", "si": "서울특별시", "gu": "강남구", "dong": "대치2동", "loc": {"lat": 37.5023067, "lng": 127.0642127}}, {"name": "대치4동 주민자치센터", "address": "서울특별시 강남구 도곡로77길 23", "si": "서울특별시", "gu": "강남구", "dong": "대치4동", "loc": {"lat": 37.5000976, "lng": 127.0579215}}, {"name": "역삼1동 주민자치센터", "address": "서울특별시 강남구 역삼로7길 16", "si": "서울특별시", "gu": "강남구", "dong": "역삼1동", "loc": {"lat": 37.495394, "lng": 127.033108}}, {"name": "역삼2동 주민자치센터", "address": "서울특별시 강남구 도곡로43길 25", "si": "서울특별시", "gu": "강남구", "dong": "역삼2동", "loc": {"lat": 37.4960586, "lng": 127.046966}}, {"name": "도곡1동 주민자치센터", "address": "서울특별시 강남구 도곡로18길 57", "si": "서울특별시", "gu": "강남구", "dong": "도곡1동", "loc": {"lat": 37.4894218, "lng": 127.0383343}}, {"name": "도곡2동 주민자치센터", "address": "서울특별시 강남구 남부순환로378길 34-9", "si": "서울특별시", "gu": "강남구", "dong": "도곡2동", "loc": {"lat": 37.4856318, "lng": 127.0459179}}, {"name": "개포1동 주민자치센터", "address": "서울특별시 강남구 개포로 303", "si": "서울특별시", "gu": "강남구", "dong": "개포1동", "loc": {"lat": 37.48268195, "lng": 127.05555585}}, {"name": "개포2동 주민자치센터", "address": "서울특별시 강남구 개포로 511", "si": "서울특별시", "gu": "강남구", "dong": "개포2동", "loc": {"lat": 37.4897742, "lng": 127.0691197}}, {"name": "개포4동 주민자치센터", "address": "서울특별시 강남구 개포로38길 12", "si": "서울특별시", "gu": "강남구", "dong": "개포4동", "loc": {"lat": 37.4779432, "lng": 127.0515901}}, {"name": "일원본동 주민자치센터", "address": "서울특별시 강남구 광평로 126", "si": "서울특별시", "gu": "강남구", "dong": "일원본동", "loc": {"lat": 37.4832934, "lng": 127.0865071}}, {"name": "일원1동 주민자치센터", "address": "서울특별시 강남구 양재대로55길 14", "si": "서울특별시", "gu": "강남구", "dong": "일원1동", "loc": {"lat": 37.4920557, "lng": 127.087615}}, {"name": "일원2동 주민자치센터", "address": "서울특별시 강남구 개포로 607", "si": "서울특별시", "gu": "강남구", "dong": "일원2동", "loc": {"lat": 37.492155350000004, "lng": 127.07370879999999}}, {"name": "수서동 주민자치센터", "address": "서울특별시 강남구 광평로 301-4", "si": "서울특별시", "gu": "강남구", "dong": "수서동", "loc": {"lat": 37.484806, "lng": 127.0761698}}, {"name": "세곡동 주민자치센터", "address": "서울특별시 강남구 밤고개로 286", "si": "서울특별시", "gu": "강남구", "dong": "세곡동", "loc": {"lat": 37.46912865, "lng": 127.10687327017865}}, {"name": "풍납1동 자치회관", "address": "서울특별시 송파구 천호대로152길 7", "si": "서울특별시", "gu": "송파구", "dong": "풍납1동", "loc": {"lat": 37.5382184, "lng": 127.1219867}}, {"name": "풍납2동 자치회관", "address": "서울특별시 송파구 토성로 52", "si": "서울특별시", "gu": "송파구", "dong": "풍납2동", "loc": {"lat": 37.5297106, "lng": 127.1149633}}, {"name": "거여1동 자치회관", "address": "서울특별시 송파구 오금로53길 32", "si": "서울특별시", "gu": "송파구", "dong": "거여1동", "loc": {"lat": 37.4952439, "lng": 127.1411986}}, {"name": "거여2동 자치회관", "address": "서울특별시 송파구 거마로2길 19", "si": "서울특별시", "gu": "송파구", "dong": "거여2동", "loc": {"lat": 37.4935399, "lng": 127.1468628}}, {"name": "마천1동 자치회관", "address": "서울특별시 송파구 마천로 303", "si": "서울특별시", "gu": "송파구", "dong": "마천1동", "loc": {"lat": 37.4919452, "lng": 127.15442}}, {"name": "마천2동 자치회관", "address": "서울특별시 송파구 마천로 287", "si": "서울특별시", "gu": "송파구", "dong": "마천2동", "loc": {"lat": 37.4919452, "lng": 127.15442}}, {"name": "방이1동 자치회관", "address": "서울특별시 송파구 위례성대로16길 22", "si": "서울특별시", "gu": "송파구", "dong": "방이1동", "loc": {"lat": 37.5109882, "lng": 127.1239088}}, {"name": "방이2동 자치회관", "address": "서울특별시 송파구 올림픽로34길 5-13", "si": "서울특별시", "gu": "송파구", "dong": "방이2동", "loc": {"lat": 37.515268, "lng": 127.1119354}}, {"name": "오륜동 자치회관", "address": "서울특별시 송파구 양재대로 1232", "si": "서울특별시", "gu": "송파구", "dong": "오륜동", "loc": {"lat": 37.5008411, "lng": 127.1197066}}, {"name": "오금동 자치회관", "address": "서울특별시 송파구 중대로25길 5", "si": "서울특별시", "gu": "송파구", "dong": "오금동", "loc": {"lat": 37.5033781, "lng": 127.1286118}}, {"name": "송파1동 자치회관", "address": "서울특별시 송파구 백제고분로 392", "si": "서울특별시", "gu": "송파구", "dong": "송파1동", "loc": {"lat": 37.5115991, "lng": 127.0784096}}, {"name": "송파2동 자치회관", "address": "서울특별시 송파구 송이로 32", "si": "서울특별시", "gu": "송파구", "dong": "송파2동", "loc": {"lat": 37.502328, "lng": 127.116687}}, {"name": "석촌동 자치회관", "address": "서울특별시 송파구 백제고분로37길 16", "si": "서울특별시", "gu": "송파구", "dong": "석촌동", "loc": {"lat": 37.503591, "lng": 127.103607}}, {"name": "삼전동 자치회관", "address": "서울특별시 송파구 백제고분로 236", "si": "서울특별시", "gu": "송파구", "dong": "삼전동", "loc": {"lat": 37.5027234, "lng": 127.0925526}}, {"name": "가락본동 자치회관", "address": "서울특별시 송파구 송파대로28길 39", "si": "서울특별시", "gu": "송파구", "dong": "가락본동", "loc": {"lat": 37.494596, "lng": 127.1205972}}, {"name": "가락1동 자치회관", "address": "서울특별시 송파구 양재대로 925", "si": "서울특별시", "gu": "송파구", "dong": "가락1동", "loc": {"lat": 37.5008411, "lng": 127.1197066}}, {"name": "가락2동 자치회관", "address": "서울특별시 송파구 중대로20길 6", "si": "서울특별시", "gu": "송파구", "dong": "가락2동", "loc": {"lat": 37.49779, "lng": 127.12816}}, {"name": "문정1동 자치회관", "address": "서울특별시 송파구 동남로 16", "si": "서울특별시", "gu": "송파구", "dong": "문정1동", "loc": {"lat": 37.5060283, "lng": 127.1393309}}, {"name": "문정2동 자치회관", "address": "서울특별시 송파구 중대로 16", "si": "서울특별시", "gu": "송파구", "dong": "문정2동", "loc": {"lat": 37.5041995, "lng": 127.1302592}}, {"name": "장지동 자치회관", "address": "서울특별시 송파구 새말로19길 6", "si": "서울특별시", "gu": "송파구", "dong": "장지동", "loc": {"lat": 37.4871778, "lng": 127.1316111}}, {"name": "위례동 자치회관", "address": "서울특별시 송파구 위례광장로 210", "si": "서울특별시", "gu": "송파구", "dong": "위례동", "loc": {"lat": 37.4812481, "lng": 127.1439766}}, {"name": "잠실본동 자치회관", "address": "서울특별시 송파구 백제고분로15길 9", "si": "서울특별시", "gu": "송파구", "dong": "잠실본동", "loc": {"lat": 37.5067395, "lng": 127.0855685}}, {"name": "잠실2동 자치회관", "address": "서울특별시 송파구 올림픽로 159", "si": "서울특별시", "gu": "송파구", "dong": "잠실2동", "loc": {"lat": 37.5119198, "lng": 127.08851415982878}}, {"name": "잠실3동 자치회관", "address": "서울특별시 송파구 잠실로 51-31", "si": "서울특별시", "gu": "송파구", "dong": "잠실3동", "loc": {"lat": 37.5133081, "lng": 127.09440924277405}}, {"name": "잠실4동 자치회관", "address": "서울특별시 송파구 올림픽로35길 16", "si": "서울특별시", "gu": "송파구", "dong": "잠실4동", "loc": {"lat": 37.520123999999996, "lng": 127.11238217671205}}, {"name": "잠실6동 자치회관", "address": "서울특별시 송파구 올림픽로35길 120", "si": "서울특별시", "gu": "송파구", "dong": "잠실6동", "loc": {"lat": 37.5194122, "lng": 127.1096307}}, {"name": "잠실7동 자치회관", "address": "서울특별시 송파구 올림픽로4길 17", "si": "서울특별시", "gu": "송파구", "dong": "잠실7동", "loc": {"lat": 37.5068569, "lng": 127.0746595}}, {"name": "강일동 자치회관", "address": "서울특별시 강동구 아리수로93길 9-14", "si": "서울특별시", "gu": "강동구", "dong": "강일동", "loc": {"lat": 37.5649416, "lng": 127.1739152}}, {"name": "상일1동 자치회관", "address": "서울특별시 강동구 구천면로 633", "si": "서울특별시", "gu": "강동구", "dong": "상일1동", "loc": {"lat": 37.55059715, "lng": 127.1682794}}, {"name": "명일1동 자치회관", "address": "서울특별시 강동구 양재대로138길 37", "si": "서울특별시", "gu": "강동구", "dong": "명일1동", "loc": {"lat": 37.549758600000004, "lng": 127.14599905}}, {"name": "명일2동 자치회관", "address": "서울특별시 강동구 상암로 260", "si": "서울특별시", "gu": "강동구", "dong": "명일2동", "loc": {"lat": 37.54671, "lng": 127.15022}}, {"name": "고덕1동 자치회관", "address": "서울특별시 강동구 양재대로156길 123", "si": "서울특별시", "gu": "강동구", "dong": "고덕1동", "loc": {"lat": 37.5563113, "lng": 127.1487911}}, {"name": "고덕2동 자치회관", "address": "서울특별시 강동구 아리수로78길 43-12", "si": "서울특별시", "gu": "강동구", "dong": "고덕2동", "loc": {"lat": 37.5605039, "lng": 127.1643845}}, {"name": "암사1동 자치회관", "address": "서울특별시 강동구 고덕로24길 49", "si": "서울특별시", "gu": "강동구", "dong": "암사1동", "loc": {"lat": 37.5534081, "lng": 127.1355607}}, {"name": "암사2동 자치회관", "address": "서울특별시 강동구 상암로3길 28", "si": "서울특별시", "gu": "강동구", "dong": "암사2동", "loc": {"lat": 37.552662, "lng": 127.1273471}}, {"name": "암사3동 자치회관", "address": "서울특별시 강동구 고덕로 137", "si": "서울특별시", "gu": "강동구", "dong": "암사3동", "loc": {"lat": 37.554981999999995, "lng": 127.14082390229837}}, {"name": "천호1동 자치회관", "address": "서울특별시 강동구 구천면로42길 59", "si": "서울특별시", "gu": "강동구", "dong": "천호1동", "loc": {"lat": 37.5434492, "lng": 127.1375702}}, {"name": "천호2동 자치회관", "address": "서울특별시 강동구 올림픽로 698", "si": "서울특별시", "gu": "강동구", "dong": "천호2동", "loc": {"lat": 37.54128, "lng": 127.12434}}, {"name": "천호3동 자치회관", "address": "서울특별시 강동구 천호대로 1089", "si": "서울특별시", "gu": "강동구", "dong": "천호3동", "loc": {"lat": 37.5466502, "lng": 127.1732408}}, {"name": "성내1동 자치회관", "address": "서울특별시 강동구 성내로 13", "si": "서울특별시", "gu": "강동구", "dong": "성내1동", "loc": {"lat": 37.52893, "lng": 127.12503}}, {"name": "성내2동 자치회관", "address": "서울특별시 강동구 풍성로37가길 62", "si": "서울특별시", "gu": "강동구", "dong": "성내2동", "loc": {"lat": 37.5332495, "lng": 127.1271485}}, {"name": "성내3동 자치회관", "address": "서울특별시 강동구 강동대로53길 76", "si": "서울특별시", "gu": "강동구", "dong": "성내3동", "loc": {"lat": 37.525568, "lng": 127.1317124}}, {"name": "길동 자치회관", "address": "서울특별시 강동구 양재대로 1442", "si": "서울특별시", "gu": "강동구", "dong": "길동", "loc": {"lat": 37.5526401, "lng": 127.1441574}}, {"name": "둔촌2동 자치회관", "address": "서울특별시 강동구 천호대로186길 7", "si": "서울특별시", "gu": "강동구", "dong": "둔촌2동", "loc": {"lat": 37.5319657, "lng": 127.142521}}
    ]
}